bmu,p50_energy_yield,curtailment,GWh/MW,curtailment %,n_data_points,r2,lat,lon,capacity,name,gen_type
ABRBO-1,317.4158710837364,0.46102495,3.2790895773113267,0.15%,52,0.9597394955784292,57.2260574,-1.9968464,96.8,European Offshore Wind Deployment Centre,offshore wind farm
ABRTW-1,91.58589993417263,9.938899900000001,2.5440527759492397,10.85%,53,0.8550184297402921,55.6211539,-3.9920599,36.0,Auchrobert Wind Farm,onshore wind farm
ACHRW-1,101.58438165485859,0.0156404,2.3846098980013752,0.02%,52,0.8089445939844793,56.1305186,-5.3385229,42.6,A’Chruach Wind Farm,onshore wind farm
ANSUW-1,46.09878968447447,0.031541599999999996,2.3885383256204387,0.07%,70,0.8585092986500733,56.220083,-5.2151455,19.3,An Suidhe Wind Farm,onshore wind farm
ARCHW-1,237.4864559173584,5.23362145,1.97905379931132,2.20%,72,0.7839881174551948,55.0678635,-4.8689509,120.0,Arecleoch Wind Farm,onshore wind farm
ASHWW-1,97.2142958343029,7.988978,2.7775513095515114,8.22%,55,0.8964436067853737,55.5072121,-3.8310474,35.0,Andershaw Wind Farm,onshore wind farm
BABAW-1,131.41510275006294,19.104803899999997,2.5031448142869133,14.54%,79,0.8603207838882807,58.5661058,-3.6725265,52.5,Baillie Wind Farm,onshore wind farm
BEATO-1,469.3537030816078,33.33623505,0.7982205834721221,7.10%,47,0.7762370771424806,58.2524573,-2.8844005,588.0,Beatrice Wind Farm,offshore wind farm
BEATO-2,492.031481385231,33.642524449999996,0.8367882336483521,6.84%,52,0.8699027038115892,58.2524573,-2.8844005,588.0,Beatrice Wind Farm,offshore wind farm
BEATO-3,646.1365213394165,55.75119985,1.0988716349309804,8.63%,47,0.8591679094402391,58.2524573,-2.8844005,588.0,Beatrice Wind Farm,offshore wind farm
BEATO-4,637.4530390501022,55.131686800000004,1.0841038079083372,8.65%,52,0.880242257130817,58.2524573,-2.8844005,588.0,Beatrice Wind Farm,offshore wind farm
BEINW-1,244.30897736549377,0.0,2.2454869243152,0.00%,53,0.9183048074952235,57.128494,-4.9301952,108.8,Beinneun Wind Farm,onshore wind farm
BETHW-1,63.29704923927784,0.8081207499999999,2.1826568703199256,1.28%,49,0.9248929172141265,57.7997041,-4.3302391,29.0,Beinn Tharsuinn Wind Farm,onshore wind farm
BHLAW-1,257.02218598127365,41.008488449999994,2.3798350553821632,15.96%,63,0.8819546532387706,57.2485412,-4.7166783,108.0,Bhlaraidh Wind Farm,onshore wind farm
BLKWW-1,162.80309665203094,0.9704064499999999,3.0775632637434964,0.60%,52,0.9476809391363062,55.1262316,-4.0286704,52.9,Blackcraig Wind Farm,onshore wind farm
BLLA-2,133.63052865862846,3.7255862000000004,0.7108006843544067,2.79%,49,0.927762685010524,55.7763267,-3.7548872,188.0,Black Law Wind Farm,onshore wind farm
BLLA-1,199.99727076292038,3.74819545,1.0638152700155339,1.87%,72,0.886333858199394,55.7763267,-3.7548872,188.0,Black Law Wind Farm,onshore wind farm
BNWKW-1,57.56216457486153,2.5930077,2.5583184255494014,4.50%,55,0.8336245135577813,58.3550137,-3.2145846,22.5,Burn of Whilk Wind Farm,onshore wind farm
BOWLW-1,267.03155583143234,1.8179399000000003,2.967017287015915,0.68%,78,0.7627585807284971,53.9916051,-3.2976403,90.0,Barrow Offshore Wind Farm,offshore wind farm
BRDUW-1,156.35505086183548,14.041572400000002,2.171597928636604,8.98%,76,0.8723984919149197,56.2601489,-4.0658634,72.0,Braes of Doune Wind Farm,onshore wind farm
BRYBW-1,161.51155930757523,17.961185949999997,2.421462658284486,11.12%,81,0.87062555180907,57.4787324,-3.5297439,66.7,Berry Burn Wind Farm,onshore wind farm
BTUIW-2,102.4434214681387,1.26950015,0.8681645887130398,1.24%,54,0.9260658793937987,55.5594749,-5.5865631,118.0,Beinn an Tuirc Wind Farm,onshore wind farm
BURBW-1,257.3146361708641,0.0,0.7394098740542072,0.00%,67,0.9354080778836577,53.4825139,-3.2597711,348.0,Burbo Bank Offshore Wind Farm,offshore wind farm
BRBEO-1,887.971512556076,2.4513681999999997,2.5516422774599885,0.28%,73,0.9156138361173594,53.4825139,-3.2597711,348.0,Burbo Bank Offshore Wind Farm,offshore wind farm
CGTHW-1,171.91906088590622,12.017004,2.4736555523151975,6.99%,50,0.6978339372567666,57.1878607,-4.3596411,69.5,Corriegarth Wind Farm,onshore wind farm
CLDCW-1,526.3376431465149,33.64403255,1.00830966120022,6.39%,72,0.902360016633076,55.4520622,-3.5763355,522.0,Clyde Wind Farm,onshore wind farm
CLDNW-1,567.3292011022568,38.0862273,1.0868375500043232,6.71%,75,0.8571513087171699,55.4520622,-3.5763355,522.0,Clyde Wind Farm,onshore wind farm
CLDSW-1,338.1892701983452,20.75472545,0.6478721651309295,6.14%,72,0.9037872392420947,55.4520622,-3.5763355,522.0,Clyde Wind Farm,onshore wind farm
CLDRW-1,90.07557238638401,12.827914799999999,2.441072422395231,14.24%,56,0.8505958325688492,57.3620928,-2.9637766,36.9,Clashindarroch Wind Farm,onshore wind farm
CLFLW-1,17.947588190436363,0.1539747,1.1965058793624241,0.86%,49,0.31324009111890844,56.286761,-4.9508272,15.0,Clachan Flats Wind Farm,onshore wind farm
COUWW-1,69.93697288632393,0.0,3.411559652991411,0.00%,45,0.7755844567133712,55.6726903,-5.5162179,20.5,Cour Wind Farm,onshore wind farm
CRGHW-1,128.3300400674343,1.8075697999999998,2.789783479726833,1.41%,78,0.9477755301739726,56.3362781,-5.2695353,46.0,Carraig Gheal Wind Farm,onshore wind farm
CRMLW-1,99.84604279696941,4.97326305,1.8354051984737025,4.98%,51,0.9077642219594521,57.6641118,-4.7810651,54.4,Corriemoillie Wind Farm,onshore wind farm
CRYRW-2,353.3880802989006,6.72031315,1.7625340663286813,1.90%,70,0.9203394905250052,55.9065661,-2.5409971,200.5,Crystal Rig Wind Farm,onshore wind farm
DALSW-1,56.50844606757164,1.06556895,1.8836148689190546,1.89%,81,0.8555286473766345,55.1854744,-3.6621051,30.0,Dalswinton Wind Farm,onshore wind farm
DDGNO-1,432.08965611457825,0.077426,1.074849890832284,0.02%,47,0.8997606211665861,53.2631838,1.3816845,402.0,Dudgeon Offshore Wind Farm,offshore wind farm
DDGNO-3,406.9063774943352,0.046475600000000006,1.0122049191401372,0.01%,52,0.9066939227984674,53.2631838,1.3816845,402.0,Dudgeon Offshore Wind Farm,offshore wind farm
DDGNO-4,405.3348978161812,0.03058615,1.0082957657118934,0.01%,52,0.8811225646493372,53.2631838,1.3816845,402.0,Dudgeon Offshore Wind Farm,offshore wind farm
DDGNO-2,359.84171491861343,0.0601525,0.8951286440761528,0.02%,50,0.9250000271441942,53.2631838,1.3816845,402.0,Dudgeon Offshore Wind Farm,offshore wind farm
DRSLW-1,168.3700512945652,5.30201955,2.4401456709357277,3.15%,55,0.9091160538460451,55.3088137,-4.4926835,69.0,Dersalloch Wind Farm,onshore wind farm
DUNGW-1,297.1182253956795,15.42016025,3.16083218506042,5.19%,51,0.7829020200672384,57.2435459,-4.2567301,94.0,Dunmaglass Wind Farm,onshore wind farm
EAAO-1,1426.494553565979,7.582044849999999,1.9978915316050125,0.53%,33,0.9362466416346047,52.2392255,2.5022195,714.0,East Anglia ONE,offshore wind farm
EAAO-2,1419.0446751117706,7.6152142,1.987457528167746,0.54%,33,0.9326152098403645,52.2392255,2.5022195,714.0,East Anglia ONE,offshore wind farm
EDINW-1,100.8996287882328,6.9963863,2.4371891011650435,6.93%,76,0.8820429418726343,57.4344582,-6.409634,41.4,Edinbane Wind Farm,onshore wind farm
EWHLW-1,94.19516111910343,2.97571185,1.846963943511832,3.16%,54,0.8967267797443635,55.159301,-3.1542099,51.0,Ewe Hill Wind Farm,onshore wind farm
FAARW-1,95.40100319683552,0.0,1.0369674260525599,0.00%,73,0.7881280996161345,57.3349229,-4.1094152,92.0,Farr Wind Farm,onshore wind farm
FAARW-2,96.57522267103195,0.0,1.049730681206869,0.00%,75,0.8141608231576125,57.3349229,-4.1094152,92.0,Farr Wind Farm,onshore wind farm
FALGW-1,399.89002680778503,17.8456488,2.777014075054063,4.46%,75,0.9099040735238565,55.8281161,-2.6706809,144.0,Fallago Rig Wind Farm,onshore wind farm
FSDLW-1,67.79975174367428,0.0012471000000000001,3.013322299718857,0.00%,56,0.9118188019007561,55.7700348,-5.4611786,22.5,Freasdail Wind Farm,onshore wind farm
GAOFO-1,365.5201439857483,0.0,1.0354678299879554,0.00%,31,0.9541347381276942,51.8619575,2.0234091,353.0,Galloper Offshore Wind Farm,offshore wind farm
GAOFO-2,368.34067755937576,0.0,1.0434580100832174,0.00%,32,0.9426276352957373,51.8619575,2.0234091,353.0,Galloper Offshore Wind Farm,offshore wind farm
GAOFO-3,368.5653989315033,0.0,1.0440946145368366,0.00%,34,0.9664265280947875,51.8619575,2.0234091,353.0,Galloper Offshore Wind Farm,offshore wind farm
GAOFO-4,368.77730506658554,0.0,1.044694915202792,0.00%,33,0.9310148385951821,51.8619575,2.0234091,353.0,Galloper Offshore Wind Farm,offshore wind farm
GDSTW-1,26.42565607279539,0.59816915,2.114052485823631,2.26%,78,0.930059954098082,57.4483275,-2.4748935,12.5,Gordonstown Hill Wind Farm,onshore wind farm
GFLDW-1,76.13268828392029,0.0,2.321118545241472,0.00%,78,0.9533111403696714,53.6601841,-0.867843,32.8,Goole Fields Wind Farms,onshore wind farm
GLOFW-1,53.04551085084677,1.2177464,2.040211955801799,2.30%,81,0.8746066828805409,57.4117658,-2.6474053,26.0,Glens of Foudland Wind Farm,onshore wind farm
GLWSW-1,149.63090109825134,5.417765,2.2671348651250205,3.62%,49,0.9154448592039903,55.5531372,-3.9454838,66.0,Galawhistle Wind Farm,onshore wind farm
GNAPW-1,54.81842860579491,0.45683045,2.4917467548088594,0.83%,40,0.8046404774184527,55.0155696,-4.9976313,22.0,Glen App Wind Farm,onshore wind farm
GNFSW-2,207.0832675397396,1.1210208000000002,1.2039724856961604,0.54%,77,0.9643304469943063,51.7318894,1.2196912,172.0,Gunfleet Sands Offshore Wind Farm,offshore wind farm
GNFSW-1,328.97236382961273,1.1839506000000002,1.9126300222651904,0.36%,75,0.9663005461635409,51.7318894,1.2196912,172.0,Gunfleet Sands Offshore Wind Farm,offshore wind farm
GORDW-1,194.4534275829792,18.55276465,1.771785217156986,9.54%,69,0.7827103954924908,58.0996879,-3.9611683,109.75,Gordonbush Wind Farm,onshore wind farm
GRGBW-1,581.6603208780289,0.1675812,1.1540879382500573,0.03%,62,0.9307839677877489,51.8613756,1.9226034,504.0,Greater Gabbard wind farm,offshore wind farm
GRGBW-2,601.356299340725,0.1158791,1.1931672605966765,0.02%,66,0.8525082254471179,51.8613756,1.9226034,504.0,Greater Gabbard wind farm,offshore wind farm
GRGBW-3,582.0627057552338,0.08534160000000002,1.154886320942924,0.01%,66,0.9205936997023849,51.8613756,1.9226034,504.0,Greater Gabbard wind farm,offshore wind farm
GRIFW-1,160.44176244735718,17.27280045,1.0258424708910305,10.77%,74,0.8495153352337224,56.5784165,-3.7265035,156.4,Griffin Wind Farm,onshore wind farm
GRIFW-2,176.59685495495796,16.301147099999998,1.1291359012465343,9.23%,76,0.8558397230582183,56.5784165,-3.7265035,156.4,Griffin Wind Farm,onshore wind farm
GYMRO-15,453.0704210996628,0.0,0.7865805921869146,0.00%,74,0.8475463665851212,53.4533797,-3.5761369,576.0,Gwynt y Môr Wind Farm,offshore wind farm
GYMRO-17,434.78026044368744,0.0,0.7548268410480685,0.00%,57,0.9447374618738695,53.4533797,-3.5761369,576.0,Gwynt y Môr Wind Farm,offshore wind farm
GYMRO-26,461.02041751146317,0.0,0.8003826692907346,0.00%,78,0.9299927388118843,53.4533797,-3.5761369,576.0,Gwynt y Môr Wind Farm,offshore wind farm
GYMRO-28,460.4758396744728,0.0,0.7994372216570709,0.00%,75,0.9389785799615937,53.4533797,-3.5761369,576.0,Gwynt y Môr Wind Farm,offshore wind farm
HADHW-1,220.1162074804306,17.047395049999995,1.8765235079320597,7.74%,75,0.8933206834646783,55.2323369,-4.7294074,117.3,Hadyard Hill Wind Farm,onshore wind farm
HBHDW-1,126.49707984924316,0.0,2.4467520280317827,0.00%,55,0.9270262403711875,55.8130556,-3.5417068,51.7,Harburnhead Wind Farm,onshore wind farm
HLGLW-1,47.09082292020321,0.0149532,1.7061892362392466,0.03%,56,0.9326839852674422,57.5108783,-3.6107416,27.6,Hill of Glaschyle Wind Farm,onshore wind farm
HLTWW-1,102.1828082203865,2.8065973,2.1288085045913854,2.75%,30,0.7532316194644231,57.5064024,-3.0618642,48.0,Hill of Towie Wind Farm,onshore wind farm
HMGTO-1,417.4039687514305,0.0432584,1.9059541952120114,0.01%,66,0.9329249395430916,53.6416528,0.2910833,219.0,Humber Gateway Wind Farm,offshore wind farm
HOWAO-1,1687.5031056404114,4.42700275,1.3854705300824395,0.26%,38,0.9396487010655925,53.8999168,1.9431668,1218.0,Hornsea One Offshore Wind Farm,offshore wind farm
HOWAO-2,1715.578500509262,4.44297375,1.4085209363787046,0.26%,43,0.9140941398104785,53.8999168,1.9431668,1218.0,Hornsea One Offshore Wind Farm,offshore wind farm
HOWAO-3,1722.2012774944305,4.7447664,1.4139583559067574,0.28%,39,0.945109169615185,53.8999168,1.9431668,1218.0,Hornsea One Offshore Wind Farm,offshore wind farm
HOWBO-1,1706.8659539222717,0.0,1.2315050172599362,0.00%,14,0.7299129942796676,53.9195,1.7698583,1386.0,Hornsea Two Offshore Wind Farm,offshore wind farm
HOWBO-2,1811.1591987609863,0.0,1.3067526686587203,0.00%,15,0.9361756962182604,53.9195,1.7698583,1386.0,Hornsea Two Offshore Wind Farm,offshore wind farm
HOWBO-3,1776.8588230609894,0.0,1.2820049228434267,0.00%,17,0.9349926640382494,53.9195,1.7698583,1386.0,Hornsea Two Offshore Wind Farm,offshore wind farm
HRSTW-1,237.88605111837387,4.11609315,1.7491621405762785,1.73%,70,0.8431595944237094,55.2526218,-3.5639048,136.0,Harestanes Wind Farm,onshore wind farm
HYWDW-1,140.6767470240593,0.017908300000000002,4.689224900801976,0.01%,54,0.8290180061861213,57.4548583,-1.3218,30.0,Hywind Scotland,floating wind farm
KILBW-1,175.3513625562191,1.0134775,2.5977979637958386,0.58%,78,0.8265785792727525,58.0452345,-4.0439878,67.5,Kilbraur Wind Farm,onshore wind farm
KLGLW-1,643.3496845960617,15.64287315,2.6918396845023502,2.43%,65,0.8194166540385173,55.0156154,-4.7729374,239.0,Kilgallioch Wind Farm,onshore wind farm
LARYO-1,582.4740062355995,0.0,0.9245619146596817,0.00%,65,0.8669081074385959,51.6365324,1.4902724,630.0,London Array,offshore wind farm
LARYO-2,552.0264985561371,0.0,0.8762325373906937,0.00%,54,0.8953964189027324,51.6365324,1.4902724,630.0,London Array,offshore wind farm
LARYO-3,577.9146585464478,0.0,0.9173248548356313,0.00%,72,0.9191315442847445,51.6365324,1.4902724,630.0,London Array,offshore wind farm
LARYO-4,581.8067303299904,0.0,0.9235027465555403,0.00%,78,0.904315608204939,51.6365324,1.4902724,630.0,London Array,offshore wind farm
LCLTW-1,150.64923582971096,8.5250402,2.9539065848962935,5.66%,76,0.8295439108077709,57.6579921,-4.8075158,51.0,Lochluichart Wind Farm,onshore wind farm
LNCSO-1,467.47797083854675,0.0,1.7313998919946176,0.00%,79,0.9525931389359196,53.1859311,0.4904364,270.0,Lincs Wind Farm,offshore wind farm
LNCSO-2,513.9681802988052,0.0,1.9035858529585379,0.00%,75,0.9467306403052643,53.1859311,0.4904364,270.0,Lincs Wind Farm,offshore wind farm
MDHLW-1,187.4749332368374,0.0,2.470025470841072,0.00%,77,0.8987397826046428,56.9652852,-2.4841137,75.9,Mid Hill Wind Farm,onshore wind farm
MIDMW-1,112.35959969460964,13.795464800000001,2.2031294057766595,12.28%,38,0.8466918155569342,55.5076052,-3.8105201,51.0,Middle Muir Wind Farm,onshore wind farm
MILWW-1,173.12093518674374,2.6369295499999996,2.6633990028729806,1.52%,79,0.8940866347705789,57.135399,-4.8469568,65.0,Millennium Wind Farm,onshore wind farm
MINSW-1,81.90925762057304,2.5889761,2.2257950440373113,3.16%,80,0.9021139080342127,55.1208024,-3.2255703,36.8,Minsca Wind Farm,onshore wind farm
MKHLW-1,106.3996010273695,0.35021255,1.899992875488741,0.33%,53,0.77441625876529,55.1304546,-4.7442317,56.0,Mark Hill Wind Farm,onshore wind farm
MOWEO-1,1131.5889556407928,123.51937534999999,1.1911462690955714,10.92%,20,0.6558133867319049,58.0546108,-3.158582914,950.0,Moray East Offshore Wind Farm,offshore wind farm
MOWEO-2,921.33871281147,111.0936603,0.9698302240120737,12.06%,21,0.6894249764695617,58.0546108,-3.158582914,950.0,Moray East Offshore Wind Farm,offshore wind farm
MOWEO-3,985.2447898387909,128.66459730000003,1.0370997787776746,13.06%,21,0.7551378158254823,58.0546108,-3.158582914,950.0,Moray East Offshore Wind Farm,offshore wind farm
OMNDO-1,458.3446979522705,0.0,3.0556313196818032,0.00%,55,0.8464618529330421,54.089035,-3.4372891,150.0,Ormonde Wind Farm,offshore wind farm
RCBKO-1,1082.4208092689514,2.7320184999999997,1.8890415519527948,0.25%,62,0.9404092717672514,53.2791854,0.8500646,573.0,Race Bank Wind Farm,offshore wind farm
RCBKO-2,1081.0778925418854,3.1350489,1.8866978927432554,0.29%,65,0.901821585991256,53.2791854,0.8500646,573.0,Race Bank Wind Farm,offshore wind farm
RMPNO-1,734.6649976968765,0.23648555000000002,1.8366624942421914,0.03%,55,0.8357950234260834,50.6683775,-0.2791214,400.0,Rampion Wind Farm,offshore wind farm
RMPNO-2,724.9639922380447,0.1733334,1.812409980595112,0.02%,54,0.7830187977104489,50.6683775,-0.2791214,400.0,Rampion Wind Farm,offshore wind farm
RREW-1,220.65795201063156,0.0,1.2681491494863883,0.00%,78,0.515503051661332,54.7534076,-3.7134969,174.0,Robin Rigg Wind Farm,offshore wind farm
RRWW-1,263.48400977253914,0.10134995,1.5142759182329835,0.04%,79,0.6230606411347843,54.7534076,-3.7134969,174.0,Robin Rigg Wind Farm,offshore wind farm
SANQW-1,116.3055208325386,5.143753799999999,3.745749463205752,4.42%,54,0.8544357716920588,55.3446407,-4.0502224,31.05,Sanquhar Community Wind Farm,onshore wind farm
SGRWO-5,356.5083210468292,1.5785089,0.3316356474854225,0.44%,6,0.1111948083298405,56.63550081,-1.926634029,1075.0,Seagreen Wind Farm,offshore wind farm
SGRWO-3,401.35744363069534,2.701288,0.3733557615169259,0.67%,5,0.2807289895048796,56.63550081,-1.926634029,1075.0,Seagreen Wind Farm,offshore wind farm
SGRWO-4,258.20996874570847,3.6235703,0.24019531976344974,1.40%,5,0.4313533277446493,56.63550081,-1.926634029,1075.0,Seagreen Wind Farm,offshore wind farm
SGRWO-6,926.9154540300369,5.0916655,0.8622469339814297,0.55%,5,0.6901821693704835,56.63550081,-1.926634029,1075.0,Seagreen Wind Farm,offshore wind farm
SHRSO-1,528.8169342279434,0.0,1.6681922215392537,0.00%,69,0.9501465076583191,53.1355458,1.1474616,317.0,Sheringham Shoal Offshore Wind Farm,offshore wind farm
SHRSO-2,521.0631071329117,0.0,1.64373219915745,0.00%,71,0.9489918236670577,53.1355458,1.1474616,317.0,Sheringham Shoal Offshore Wind Farm,offshore wind farm
STLGW-1,214.9481536746025,4.67041155,0.9427550599763268,2.17%,56,0.7738726665352098,57.1002503,-4.4399358,228.0,Stronelairg Wind Farm,onshore wind farm
STLGW-2,259.17398327589035,5.48538515,1.1367279968240804,2.12%,55,0.8832758938231142,57.1002503,-4.4399358,228.0,Stronelairg Wind Farm,onshore wind farm
STLGW-3,222.6055200099945,4.1349982,0.9763400000438356,1.86%,53,0.7873210904334066,57.1002503,-4.4399358,228.0,Stronelairg Wind Farm,onshore wind farm
STRNW-1,150.05963760614395,25.500703650000005,2.2165382216564837,16.99%,49,0.8511695145138769,58.4904395,-4.0483493,67.7,Strathy North Wind Farm,onshore wind farm
TDBNW-1,69.35813271254301,0.5002163999999999,2.512975822918225,0.72%,77,0.9169336916240288,55.7691495,-2.8733758,27.6,Toddleburn Wind Farm,onshore wind farm
THNTO-1,368.9849371314049,0.15454990000000002,1.2299497904380163,0.04%,2,0.9999999999999996,51.4308241,1.6287329,300.0,Thanet Wind Farm,offshore wind farm
THNTO-2,341.6494020819664,0.0987375,1.1388313402732213,0.03%,2,1.0,51.4308241,1.6287329,300.0,Thanet Wind Farm,offshore wind farm
TKNWW-1,1495.7128417491913,2.6550751999999997,1.7452891969068742,0.18%,2,1.0,53.4708167,0.845075,857.0,Triton Knoll Wind Farm,offshore wind farm
TLYMW-1,26.493576791137457,0.07612335,1.839831721606768,0.29%,50,0.8991589119817948,56.6711747,-3.2997717,14.4,Tullymurdoch Wind Farm,onshore wind farm
TULWW-1,38.07320833206177,0.5940050000000001,0.8958401960485122,1.56%,51,0.9437701373150097,56.8356287,-2.4046161,42.5,Tullo Wind Farm,onshore wind farm
TULWW-2,50.47066570818424,2.2751568,1.187545075486688,4.51%,78,0.9322494626672428,56.8356287,-2.4046161,42.5,Tullo Wind Farm,onshore wind farm
WDNSO-1,784.8648673295975,0.2984555499999999,2.0176474738550065,0.04%,74,0.9054811610625719,53.9843164,-3.4702945,389.0,West of Duddon Sands Wind Farm,offshore wind farm
WDNSO-2,748.5471707582474,0.20034585,1.9242857860109186,0.03%,77,0.9536506521065682,53.9843164,-3.4702945,389.0,West of Duddon Sands Wind Farm,offshore wind farm
WHIHW-1,99.8300043195486,0.19905040000000002,3.697407567390689,0.20%,47,0.8830394164992713,55.3253487,-4.0232592,27.0,Whiteside Hill Wind Farm,onshore wind farm
WHILW-1,619.4361436963081,2.06710735,1.149232177544171,0.33%,78,0.8668227711881835,55.6741248,-4.2667601,539.0,Whitelee Wind Farm,onshore wind farm
WHILW-2,356.06003898382187,1.3684042,0.6605937643484636,0.38%,78,0.8339992600765659,55.6741248,-4.2667601,539.0,Whitelee Wind Farm,onshore wind farm
WLNYO-2,735.1081041097641,0.7858645499999999,0.7163399962090861,0.11%,68,0.8834930384321499,54.0836666,-3.6821979,1026.2,Walney Wind Farm,offshore wind farm
WLNYO-3,1337.9460105895996,7.516944100000001,1.3037867965207557,0.56%,56,0.9263418933014073,54.0836666,-3.6821979,1026.2,Walney Wind Farm,offshore wind farm
WLNYO-4,1292.0069398880005,10.531856200000002,1.2590206001637112,0.82%,58,0.8386700188354783,54.0836666,-3.6821979,1026.2,Walney Wind Farm,offshore wind farm
WLNYW-1,621.185005068779,0.7387085,0.605325477556791,0.12%,74,0.9331932609164663,54.0836666,-3.6821979,1026.2,Walney Wind Farm,offshore wind farm
WTMSO-1,871.0501413345337,0.07701945,4.147857815878732,0.01%,73,0.9587357080216907,53.8058334,0.14975,210.0,Westermost Rough Wind Farm,offshore wind farm
