bmu,p50_energy_yield,curtailment,GWh/MW,curtailment %,n_data_points,r2,lat,lon,capacity,name,gen_type
ABRBO-1,318.8334163427353,0.0,3.2937336399042905,0.00%,48,0.9627968679202139,57.2260574,-1.9968464,96.8,European Offshore Wind Deployment Centre,offshore wind farm
ABRTW-1,84.48973394185305,0.0,2.3469370539403624,0.00%,53,0.7596550625198762,55.6211539,-3.9920599,36.0,Auchrobert Wind Farm,onshore wind farm
ACHRW-1,100.84259951114655,0.0,2.3671971716231583,0.00%,52,0.80971315723746,56.1305186,-5.3385229,42.6,A’Chruach Wind Farm,onshore wind farm
ANSUW-1,44.807986840605736,0.0,2.321657349254183,0.00%,69,0.8301008690320681,56.220083,-5.2151455,19.3,An Suidhe Wind Farm,onshore wind farm
ARCHW-1,211.42885318398476,0.0,1.7619071098665395,0.00%,72,0.690117675495316,55.0678635,-4.8689509,120.0,Arecleoch Wind Farm,onshore wind farm
ASHWW-1,92.2380922883749,0.0,2.63537406538214,0.00%,54,0.8156891664312538,55.5072121,-3.8310474,35.0,Andershaw Wind Farm,onshore wind farm
BABAW-1,121.5105644762516,0.0,2.3144869424047925,0.00%,79,0.6356148186819707,58.5661058,-3.6725265,52.5,Baillie Wind Farm,onshore wind farm
BEATO-1,449.9898439049721,0.0,0.765288850178524,0.00%,47,0.5794370721386561,58.2524573,-2.8844005,588.0,Beatrice Wind Farm,offshore wind farm
BEATO-2,473.6970554590225,0.0,0.8056072371752083,0.00%,52,0.7119320232674189,58.2524573,-2.8844005,588.0,Beatrice Wind Farm,offshore wind farm
BEATO-3,609.47618496418,0.0,1.0365241240887415,0.00%,47,0.6305827152098952,58.2524573,-2.8844005,588.0,Beatrice Wind Farm,offshore wind farm
BEATO-4,604.0146256685257,0.0,1.0272357579396696,0.00%,52,0.6798345696244332,58.2524573,-2.8844005,588.0,Beatrice Wind Farm,offshore wind farm
BEINW-1,242.2629542350769,0.0,2.2266815646606335,0.00%,53,0.9053185478568154,57.128494,-4.9301952,108.8,Beinneun Wind Farm,onshore wind farm
BETHW-1,59.36943657696247,0.0,2.0472219509297402,0.00%,49,0.869488882611009,57.7997041,-4.3302391,29.0,Beinn Tharsuinn Wind Farm,onshore wind farm
BHLAW-1,209.62467727065086,0.0,1.940969233987508,0.00%,63,0.6901154157615419,57.2485412,-4.7166783,108.0,Bhlaraidh Wind Farm,onshore wind farm
BLKWW-1,161.46774128079414,0.0,3.05232025105471,0.00%,52,0.94281352837518,55.1262316,-4.0286704,52.9,Blackcraig Wind Farm,onshore wind farm
BLLA-2,121.32685089111328,0.0,0.6453555898463472,0.00%,49,0.8624578882172478,55.7763267,-3.7548872,188.0,Black Law Wind Farm,onshore wind farm
BLLA-1,179.93870702385902,0.0,0.9571207820418033,0.00%,72,0.7379990993977276,55.7763267,-3.7548872,188.0,Black Law Wind Farm,onshore wind farm
BNWKW-1,55.52409651875496,0.0,2.467737623055776,0.00%,53,0.7477289371111508,58.3550137,-3.2145846,22.5,Burn of Whilk Wind Farm,onshore wind farm
BOWLW-1,265.21382051706314,0.0,2.9468202279673683,0.00%,78,0.7638575280279521,53.9916051,-3.2976403,90.0,Barrow Offshore Wind Farm,offshore wind farm
BRDUW-1,149.06016325950623,0.0,2.07028004527092,0.00%,76,0.71159390876478,56.2601489,-4.0658634,72.0,Braes of Doune Wind Farm,onshore wind farm
BRYBW-1,151.86631602048874,0.0,2.2768563121512555,0.00%,81,0.7587967235056918,57.4787324,-3.5297439,66.7,Berry Burn Wind Farm,onshore wind farm
BTUIW-2,97.0440127402544,0.0,0.8224068876292746,0.00%,54,0.8408586534685268,55.5594749,-5.5865631,118.0,Beinn an Tuirc Wind Farm,onshore wind farm
BURBW-1,257.34611093997955,0.0,0.7395003187930447,0.00%,67,0.9354260502013568,53.4825139,-3.2597711,348.0,Burbo Bank Offshore Wind Farm,offshore wind farm
BRBEO-1,887.5869234800339,0.0,2.550537136436879,0.00%,73,0.9155438798259705,53.4825139,-3.2597711,348.0,Burbo Bank Offshore Wind Farm,offshore wind farm
CGTHW-1,147.92198953032494,0.0,2.1283739500766177,0.00%,50,0.3416976752550958,57.1878607,-4.3596411,69.5,Corriegarth Wind Farm,onshore wind farm
CLDCW-1,488.02412474155426,0.0,0.9349121163631308,0.00%,72,0.8222231825823431,55.4520622,-3.5763355,522.0,Clyde Wind Farm,onshore wind farm
CLDNW-1,524.1327348947525,0.0,1.004085699032093,0.00%,75,0.7601393571654672,55.4520622,-3.5763355,522.0,Clyde Wind Farm,onshore wind farm
CLDSW-1,315.2293536067009,0.0,0.6038876505875496,0.00%,72,0.8397794761436881,55.4520622,-3.5763355,522.0,Clyde Wind Farm,onshore wind farm
CLDRW-1,83.694060921669,0.0,2.268131732294553,0.00%,55,0.7047778885594986,57.3620928,-2.9637766,36.9,Clashindarroch Wind Farm,onshore wind farm
CLFLW-1,17.313526056706905,0.0,1.154235070447127,0.00%,49,0.31291754531120947,56.286761,-4.9508272,15.0,Clachan Flats Wind Farm,onshore wind farm
COUWW-1,69.65683476626873,0.0,3.397894378842377,0.00%,45,0.7751868621712499,55.6726903,-5.5162179,20.5,Cour Wind Farm,onshore wind farm
CRGHW-1,126.7805083990097,0.0,2.756098008674124,0.00%,77,0.9346942833085127,56.3362781,-5.2695353,46.0,Carraig Gheal Wind Farm,onshore wind farm
CRMLW-1,91.06714564561844,0.0,1.67402841260328,0.00%,51,0.7211863877396355,57.6641118,-4.7810651,54.4,Corriemoillie Wind Farm,onshore wind farm
CRYRW-2,341.47223740816116,0.0,1.7031034284696318,0.00%,69,0.8979354198253509,55.9065661,-2.5409971,200.5,Crystal Rig Wind Farm,onshore wind farm
DALSW-1,55.487275905907154,0.0,1.8495758635302384,0.00%,80,0.8356805455772662,55.1854744,-3.6621051,30.0,Dalswinton Wind Farm,onshore wind farm
DDGNO-1,432.11817294359207,0.0,1.0749208282178908,0.00%,47,0.8992087450043738,53.2631838,1.3816845,402.0,Dudgeon Offshore Wind Farm,offshore wind farm
DDGNO-3,405.14237159490585,0.0,1.0078168447634475,0.00%,49,0.9080661967851118,53.2631838,1.3816845,402.0,Dudgeon Offshore Wind Farm,offshore wind farm
DDGNO-4,405.3711891770363,0.0,1.008386042728946,0.00%,52,0.8807757414424223,53.2631838,1.3816845,402.0,Dudgeon Offshore Wind Farm,offshore wind farm
DDGNO-2,360.23689728975296,0.0,0.8961116848003805,0.00%,49,0.9236531092869951,53.2631838,1.3816845,402.0,Dudgeon Offshore Wind Farm,offshore wind farm
DRSLW-1,150.46989208459854,0.0,2.1807230736898338,0.00%,55,0.7561864808142023,55.3088137,-4.4926835,69.0,Dersalloch Wind Farm,onshore wind farm
DUNGW-1,268.230836302042,0.0,2.8535195351281066,0.00%,50,0.5431939298478304,57.2435459,-4.2567301,94.0,Dunmaglass Wind Farm,onshore wind farm
EAAO-1,1422.5314424037933,0.0,1.9923409557476097,0.00%,33,0.9330325346884784,52.2392255,2.5022195,714.0,East Anglia ONE,offshore wind farm
EAAO-2,1416.7580976486206,0.0,1.9842550387235582,0.00%,32,0.9317617583869142,52.2392255,2.5022195,714.0,East Anglia ONE,offshore wind farm
EDINW-1,93.69022522866726,0.0,2.263048918566842,0.00%,76,0.8034124960455618,57.4344582,-6.409634,41.4,Edinbane Wind Farm,onshore wind farm
EWHLW-1,86.30431292951107,0.0,1.6922414299904132,0.00%,54,0.7979573044954614,55.159301,-3.1542099,51.0,Ewe Hill Wind Farm,onshore wind farm
FAARW-1,95.40728501975536,0.0,1.0370357067364713,0.00%,73,0.7883649503020813,57.3349229,-4.1094152,92.0,Farr Wind Farm,onshore wind farm
FAARW-2,96.58260041475296,0.0,1.0498108740734018,0.00%,75,0.8143397724654563,57.3349229,-4.1094152,92.0,Farr Wind Farm,onshore wind farm
FALGW-1,355.6568183898926,0.0,2.469839016596476,0.00%,73,0.7274563046623097,55.8281161,-2.6706809,144.0,Fallago Rig Wind Farm,onshore wind farm
FSDLW-1,67.48735156655312,0.0,2.9994378474023606,0.00%,56,0.9086533921573833,55.7700348,-5.4611786,22.5,Freasdail Wind Farm,onshore wind farm
GAOFO-1,365.59647822380066,0.0,1.035684074288387,0.00%,31,0.9537316874496948,51.8619575,2.0234091,353.0,Galloper Offshore Wind Farm,offshore wind farm
GAOFO-2,368.41412729024887,0.0,1.0436660829752094,0.00%,32,0.9421762809980867,51.8619575,2.0234091,353.0,Galloper Offshore Wind Farm,offshore wind farm
GAOFO-3,368.6400576233864,0.0,1.0443061122475534,0.00%,34,0.9661360224919645,51.8619575,2.0234091,353.0,Galloper Offshore Wind Farm,offshore wind farm
GAOFO-4,368.8471148610115,0.0,1.0448926766600892,0.00%,33,0.930619129774564,51.8619575,2.0234091,353.0,Galloper Offshore Wind Farm,offshore wind farm
GDSTW-1,25.865563489496708,0.0,2.0692450791597365,0.00%,78,0.9221019438328004,57.4483275,-2.4748935,12.5,Gordonstown Hill Wind Farm,onshore wind farm
GFLDW-1,76.14294615387917,0.0,2.321431285179243,0.00%,78,0.9534371385665388,53.6601841,-0.867843,32.8,Goole Fields Wind Farms,onshore wind farm
GLOFW-1,51.81883576512337,0.0,1.9930321448124373,0.00%,81,0.8704252575124993,57.4117658,-2.6474053,26.0,Glens of Foudland Wind Farm,onshore wind farm
GLWSW-1,137.93835043907166,0.0,2.089975006652601,0.00%,49,0.875477751314277,55.5531372,-3.9454838,66.0,Galawhistle Wind Farm,onshore wind farm
GNAPW-1,52.2404654994607,0.0,2.37456661361185,0.00%,38,0.8083128346545293,55.0155696,-4.9976313,22.0,Glen App Wind Farm,onshore wind farm
GNFSW-2,206.28695032000542,0.0,1.199342734418636,0.00%,77,0.962270108444604,51.7318894,1.2196912,172.0,Gunfleet Sands Offshore Wind Farm,offshore wind farm
GNFSW-1,327.68827122449875,0.0,1.905164367584295,0.00%,75,0.963846725538457,51.7318894,1.2196912,172.0,Gunfleet Sands Offshore Wind Farm,offshore wind farm
GORDW-1,177.99812841415405,0.0,1.62185082837498,0.00%,67,0.6556479014937806,58.0996879,-3.9611683,109.75,Gordonbush Wind Farm,onshore wind farm
GRGBW-1,581.6475896835327,0.0,1.1540626779435172,0.00%,62,0.930522096838979,51.8613756,1.9226034,504.0,Greater Gabbard wind farm,offshore wind farm
GRGBW-2,601.3671609759331,0.0,1.1931888114601847,0.00%,66,0.8522823746346261,51.8613756,1.9226034,504.0,Greater Gabbard wind farm,offshore wind farm
GRGBW-3,583.2819592952728,0.0,1.157305474792208,0.00%,64,0.9178004146126424,51.8613756,1.9226034,504.0,Greater Gabbard wind farm,offshore wind farm
GRIFW-1,140.11826464533806,0.0,0.8958968327707036,0.00%,73,0.5251031248468807,56.5784165,-3.7265035,156.4,Griffin Wind Farm,onshore wind farm
GRIFW-2,155.77829644083977,0.0,0.9960249133046021,0.00%,76,0.5562698854085866,56.5784165,-3.7265035,156.4,Griffin Wind Farm,onshore wind farm
GYMRO-15,453.1016665697098,0.0,0.7866348377946351,0.00%,74,0.8474566167786289,53.4533797,-3.5761369,576.0,Gwynt y Môr Wind Farm,offshore wind farm
GYMRO-17,434.7958766222,0.0,0.7548539524690973,0.00%,57,0.9447283867004976,53.4533797,-3.5761369,576.0,Gwynt y Môr Wind Farm,offshore wind farm
GYMRO-26,461.06634813547134,0.0,0.8004624099574156,0.00%,78,0.9299055255555551,53.4533797,-3.5761369,576.0,Gwynt y Môr Wind Farm,offshore wind farm
GYMRO-28,460.52515465021133,0.0,0.7995228379343947,0.00%,75,0.9388988402821971,53.4533797,-3.5761369,576.0,Gwynt y Môr Wind Farm,offshore wind farm
HADHW-1,198.6694800555706,0.0,1.6936869569954869,0.00%,75,0.7618236182758901,55.2323369,-4.7294074,117.3,Hadyard Hill Wind Farm,onshore wind farm
HBHDW-1,126.51406070590019,0.0,2.4470804778704096,0.00%,55,0.9271652145278674,55.8130556,-3.5417068,51.7,Harburnhead Wind Farm,onshore wind farm
HLGLW-1,47.08910317718983,0.0,1.7061269267097763,0.00%,56,0.9328477856222877,57.5108783,-3.6107416,27.6,Hill of Glaschyle Wind Farm,onshore wind farm
HLTWW-1,102.08927899599075,0.0,2.126859979083141,0.00%,30,0.7487049316520668,57.5064024,-3.0618642,48.0,Hill of Towie Wind Farm,onshore wind farm
HMGTO-1,420.11478435993195,0.0,1.9183323486754884,0.00%,64,0.9565183535510041,53.6416528,0.2910833,219.0,Humber Gateway Wind Farm,offshore wind farm
HOWAO-1,1681.7216601371765,0.0,1.3807238588975177,0.00%,38,0.9394163068311955,53.8999168,1.9431668,1218.0,Hornsea One Offshore Wind Farm,offshore wind farm
HOWAO-2,1713.186199426651,0.0,1.406556813979188,0.00%,43,0.9129070882303407,53.8999168,1.9431668,1218.0,Hornsea One Offshore Wind Farm,offshore wind farm
HOWAO-3,1719.5546543598175,0.0,1.4117854305088813,0.00%,38,0.9418013921464404,53.8999168,1.9431668,1218.0,Hornsea One Offshore Wind Farm,offshore wind farm
HOWBO-1,1723.1826574802399,0.0,1.2432775306495236,0.00%,13,0.7096107439329769,53.9195,1.7698583,1386.0,Hornsea Two Offshore Wind Farm,offshore wind farm
HOWBO-2,1818.1361804008484,0.0,1.3117865659457781,0.00%,14,0.9348438711663777,53.9195,1.7698583,1386.0,Hornsea Two Offshore Wind Farm,offshore wind farm
HOWBO-3,1777.2775161266327,0.0,1.2823070101923757,0.00%,16,0.9319856881462152,53.9195,1.7698583,1386.0,Hornsea Two Offshore Wind Farm,offshore wind farm
HRSTW-1,216.53952831029892,0.0,1.5922024140463156,0.00%,70,0.7249406965126189,55.2526218,-3.5639048,136.0,Harestanes Wind Farm,onshore wind farm
HYWDW-1,142.0879148542881,0.0,4.73626382847627,0.00%,53,0.8819450248922145,57.4548583,-1.3218,30.0,Hywind Scotland,floating wind farm
KILBW-1,164.58901831507683,0.0,2.438355826890027,0.00%,78,0.6663808652281352,58.0452345,-4.0439878,67.5,Kilbraur Wind Farm,onshore wind farm
KLGLW-1,577.8848267793655,0.0,2.417928145520358,0.00%,65,0.6572871535227863,55.0156154,-4.7729374,239.0,Kilgallioch Wind Farm,onshore wind farm
